{"type":"FeatureCollection","features":[{"type":"Feature","geometry":{"type":"Point","coordinates":[-61.460116,10.422223]},"properties":{"phoneFormatted":"(868) 225-1944","phone":8682251944,"address":"Southern Main Road","city":"Couva","country":"Trinidad and Tobago","countryCode":"TT"}},{"type":"Feature","geometry":{"type":"Point","coordinates":[-61.127864,10.585255]},"properties":{"phoneFormatted":"(868) 225-1948","phone":8682251948,"address":"Eastern Main Road","city":"Sangre Grande","country":"Trinidad and Tobago","countryCode":"TT"}},{"type":"Feature","geometry":{"type":"Point","coordinates":[-61.5545481,10.6920113]},"properties":{"phoneFormatted":"(868) 225-1961","phone":8682251961,"address":"Diego Martin Main Road","city":"Diego Martin","country":"Trinidad and Tobago","countryCode":"TT"}},{"type":"Feature","geometry":{"type":"Point","coordinates":[-61.5529058,10.6778854]},"properties":{"phoneFormatted":"(868) 225-1960","phone":8682251960,"address":"Western Main Road","city":"Westmoorings","country":"Trinidad and Tobago","countryCode":"TT"}},{"type":"Feature","geometry":{"type":"Point","coordinates":[-61.516946,10.660608]},"properties":{"phoneFormatted":"(868) 225-1958","phone":8682251958,"address":"Cipriani Boulevard","city":"Port of Spain","country":"Trinidad and Tobago","countryCode":"TT"}},{"type":"Feature","geometry":{"type":"Point","coordinates":[-61.524227,10.6755615]},"properties":{"phoneFormatted":"(868) 225-1959","phone":8682251959,"address":"Saddle Road","city":"Maraval","country":"Trinidad and Tobago","countryCode":"TT"}},{"type":"Feature","geometry":{"type":"Point","coordinates":[-61.509216,10.649509]},"properties":{"phoneFormatted":"(868) 225-1956","phone":8682251956,"address":"Independence Square South","city":"Port of Spain","country":"Trinidad and Tobago","countryCode":"TT"}},{"type":"Feature","geometry":{"type":"Point","coordinates":[-61.402176,10.514341]},"properties":{"phoneFormatted":"(868) 225-1947","phone":8682251947,"address":"Southern Main Road","city":"Montrose","country":"Trinidad and Tobago","countryCode":"TT"}},{"type":"Feature","geometry":{"type":"Point","coordinates":[-61.4505783,10.6502193]},"properties":{"phoneFormatted":"(868) 225-1955","phone":8682251955,"address":"Eastern Main Road","city":"San Juan","country":"Trinidad and Tobago","countryCode":"TT"}},{"type":"Feature","geometry":{"type":"Point","coordinates":[-61.418542,10.633014]},"properties":{"phoneFormatted":"(868) 225-1954","phone":8682251954,"address":"Valpark Shopping Plaza","city":"Valsayn","country":"Trinidad and Tobago","countryCode":"TT"}},{"type":"Feature","geometry":{"type":"Point","coordinates":[-61.404278,10.648069]},"properties":{"phoneFormatted":"(868) 225-1953","phone":8682251953,"address":"Eastern Main Road","city":"St Augustine","country":"Trinidad and Tobago","countryCode":"TT"}},{"type":"Feature","geometry":{"type":"Point","coordinates":[-61.3982669,10.6390032]},"properties":{"phoneFormatted":"(868) 225-1952","phone":8682251952,"address":"University of the West Indies","city":"St Augustine","country":"Trinidad and Tobago","countryCode":"TT"}},{"type":"Feature","geometry":{"type":"Point","coordinates":[-61.3724391,10.6460632]},"properties":{"phoneFormatted":"(868) 225-1951","phone":8682251951,"address":"Eastern Main Road","city":"El Dorado","country":"Trinidad and Tobago","countryCode":"TT"}},{"type":"Feature","geometry":{"type":"Point","coordinates":[-61.2924027,10.6176975]},"properties":{"phoneFormatted":"(868) 225-1949","phone":8682251949,"address":"O'Meara Road","city":"Arima","country":"Trinidad and Tobago","countryCode":"TT"}},{"type":"Feature","geometry":{"type":"Point","coordinates":[-61.3530659,10.6272041]},"properties":{"phoneFormatted":"(868) 225-1950","phone":8682251950,"address":"Trincity Mall","city":"Trincity","country":"Trinidad and Tobago","countryCode":"TT"}},{"type":"Feature","geometry":{"type":"Point","coordinates":[-61.4108854,10.532962]},"properties":{"phoneFormatted":"(868) 225-1962","phone":8682251962,"address":"Narsaloo Ramaya Marg Road","city":"Chaguanas","country":"Trinidad and Tobago","countryCode":"TT"}},{"type":"Feature","geometry":{"type":"Point","coordinates":[-61.4095255,10.5122528]},"properties":{"phoneFormatted":"(868) 225-1945","phone":8682251945,"address":"Mid Centre Mall","city":"Chaguanas","country":"Trinidad and Tobago","countryCode":"TT"}},{"type":"Feature","geometry":{"type":"Point","coordinates":[-61.410019,10.5138274]},"properties":{"phoneFormatted":"(868) 225-1946","phone":8682251946,"address":"Eleanor Road","city":"Chaguanas","country":"Trinidad and Tobago","countryCode":"TT"}},{"type":"Feature","geometry":{"type":"Point","coordinates":[-61.508911,10.6481482]},"properties":{"phoneFormatted":"(868) 225-1957","phone":8682251957,"address":"South Quay","city":"Port of Spain","country":"Trinidad and Tobago","countryCode":"TT"}},{"type":"Feature","geometry":{"type":"Point","coordinates":[-61.432208,10.3144312]},"properties":{"phoneFormatted":"(868) 225-1943","phone":8682251943,"address":"LP#5 Bonne Aventure Road","city":"Gasparillo","country":"Trinidad and Tobago","countryCode":"TT"}},{"type":"Feature","geometry":{"type":"Point","coordinates":[-61.4481802,10.3016586]},"properties":{"phoneFormatted":"(868) 225-1942","phone":8682251942,"address":"Gopaul Lands","city":"Marabella","country":"Trinidad and Tobago","countryCode":"TT"}}]}